[{"name": "Enjoy Vegetarian Restaurant", "locality": "San Francisco", "website_url": "http://www.enjoyveggie.com/", "cuisines": ["vegetarian", "chinese"], "region": "CA", "long": -122.405254, "phone": "(415) 956-7868", "postal_code": "94108", "categories": ["other", "restaurant"], "has_menu": true, "country": "United States", "lat": 37.795841, "id": "0d6420ef9825fd2e00ff", "street_address": "839 Kearny St.", "resource_uri": "/v1_0/venue/0d6420ef9825fd2e00ff/"}, {"name": "Eastern Sea", "locality": "San Francisco", "website_url": "http://easternbakery.com", "cuisines": ["chinese"], "region": "CA", "long": -122.406114, "phone": "(415) 989-5182", "postal_code": "94108", "categories": ["restaurant"], "has_menu": true, "country": "United States", "lat": 37.793768, "id": "8a3d7ab187fcd777744d", "street_address": "720 Grant Ave.", "resource_uri": "/v1_0/venue/8a3d7ab187fcd777744d/"}, {"name": "Henry's Hunan Restaurant", "locality": "San Francisco", "website_url": "http://www.henryshunanrestaurant.com/", "cuisines": ["asian", "chinese"], "region": "CA", "long": -122.404146, "phone": "(415) 788-2234", "postal_code": "94108", "categories": ["other", "restaurant"], "has_menu": true, "country": "United States", "lat": 37.793699, "id": "55ae26fcae5d9461db29", "street_address": "674 Sacramento St.", "resource_uri": "/v1_0/venue/55ae26fcae5d9461db29/"}, {"name": "The Far East Caf\u00e9", "locality": "San Francisco", "website_url": "http://fareastcafesf.com", "cuisines": ["dim sum", "seafood", "chinese"], "region": "CA", "long": -122.404918, "phone": "(415) 982-3245", "postal_code": "94108", "categories": ["other", "restaurant"], "has_menu": true, "country": "United States", "lat": 37.793451, "id": "16f61964ffc0e0d3d0a2", "street_address": "631 Grant Ave.", "resource_uri": "/v1_0/venue/16f61964ffc0e0d3d0a2/"}, {"name": "Tonga Room & Hurricane Bar - Fairmont San Francisco", "locality": "San Francisco", "website_url": "http://www.tongaroom.com", "cuisines": ["sushi", "chinese"], "region": "CA", "long": -122.410093, "phone": "(415) 772-5278", "postal_code": "94108", "categories": ["other", "restaurant"], "has_menu": true, "country": "United States", "lat": 37.792427, "id": "1da3345bb77bd14b87d8", "street_address": "950 Mason St.", "resource_uri": "/v1_0/venue/1da3345bb77bd14b87d8/"}, {"name": "Washington Bakery & Restaurant", "locality": "San Francisco", "website_url": "http://www.washingtonbakerysf.com", "cuisines": ["bakery", "chinese"], "region": "CA", "long": -122.406132817268, "phone": "(415) 397-3232", "postal_code": "94108", "categories": ["other", "restaurant"], "has_menu": true, "country": "United States", "lat": 37.7952286763584, "id": "d09492062ce1ac6202ba", "street_address": "733 Washington St.", "resource_uri": "/v1_0/venue/d09492062ce1ac6202ba/"}, {"name": "City Chopsticks", "locality": "San Francisco", "website_url": "http://www.citychopstickssf.com", "cuisines": ["chinese"], "region": "CA", "long": -122.411820797083, "phone": "(415) 563-1085", "postal_code": "94108", "categories": ["other", "restaurant"], "has_menu": true, "country": "United States", "lat": 37.7899099158298, "id": "c3dcbc27f208377b6ca3", "street_address": "883 Bush St.", "resource_uri": "/v1_0/venue/c3dcbc27f208377b6ca3/"}, {"name": "Chinatown Restaurant", "locality": "San Francisco", "website_url": "http://www.chinatownrestaurantsf.com/", "cuisines": ["chinese"], "region": "CA", "long": -122.405986, "phone": "(415) 392-7958", "postal_code": "94108", "categories": ["other", "restaurant"], "has_menu": true, "country": "United States", "lat": 37.795273, "id": "c3c6e822137449bc2001", "street_address": "744 Washington St.", "resource_uri": "/v1_0/venue/c3c6e822137449bc2001/"}, {"name": "The Pot Sticker Restaurant", "locality": "San Francisco", "website_url": "http://www.thepotsticker.com/", "cuisines": ["seafood", "vegetarian", "chinese"], "region": "CA", "long": -122.406896, "phone": "(415) 397-9985", "postal_code": "94108", "categories": ["other", "restaurant"], "has_menu": true, "country": "United States", "lat": 37.794884, "id": "8b66120521ccbe829cb0", "street_address": "150 Waverly Pl.", "resource_uri": "/v1_0/venue/8b66120521ccbe829cb0/"}, {"name": "San Sun Restaurant", "locality": "San Francisco", "website_url": "http://www.sansunrestaurant.com/", "cuisines": ["chinese"], "region": "CA", "long": -122.407193, "phone": "(415) 296-8228", "postal_code": "94108", "categories": ["other", "restaurant"], "has_menu": true, "country": "United States", "lat": 37.79512, "id": "bda841ac0d505ceed6ac", "street_address": "848 Washington St.", "resource_uri": "/v1_0/venue/bda841ac0d505ceed6ac/"}, {"name": "Imperial Palace", "locality": "San Francisco", "website_url": "http://imperialpalacesf.com", "cuisines": ["dim sum", "chinese", "bar / pub / brewery"], "region": "CA", "long": -122.40675982219, "phone": "(415) 956-9888", "postal_code": "94108", "categories": ["other", "restaurant"], "has_menu": true, "country": "United States", "lat": 37.7952073638653, "id": "5565bd49f17d19dff724", "street_address": "818 Washington St.", "resource_uri": "/v1_0/venue/5565bd49f17d19dff724/"}, {"name": "Four Seas Restaurant", "locality": "San Francisco", "website_url": "http://www.fourseasr.com", "cuisines": ["chinese"], "region": "CA", "long": -122.406, "phone": "(415) 989-8188", "postal_code": "94108", "categories": ["other", "restaurant"], "has_menu": true, "country": "United States", "lat": 37.7936, "id": "ed82ce4a5df02542b385", "street_address": "731 Grant Ave.", "resource_uri": "/v1_0/venue/ed82ce4a5df02542b385/"}, {"name": "Penang Garden Restaurant", "locality": "San Francisco", "website_url": "http://penanggardensf.com/", "cuisines": ["thai", "malaysian", "asian", "chinese"], "region": "CA", "long": -122.405534, "phone": "(415) 296-7878", "postal_code": "94108", "categories": ["other", "restaurant"], "has_menu": true, "country": "United States", "lat": 37.795352, "id": "7534e62e89111159cb24", "street_address": "728 Washington St.", "resource_uri": "/v1_0/venue/7534e62e89111159cb24/"}, {"name": "Empress of China", "locality": "San Francisco", "website_url": "http://empressofchinasf.com/", "cuisines": ["chinese", "bar / pub / brewery"], "region": "CA", "long": -122.406323, "phone": "(415) 434-1345", "postal_code": "94108", "categories": ["other", "restaurant"], "has_menu": true, "country": "United States", "lat": 37.79476, "id": "fea8758f92dba7ccaea3", "street_address": "838 Grant Ave.", "resource_uri": "/v1_0/venue/fea8758f92dba7ccaea3/"}, {"name": "Grant Palace Restaurant", "locality": "San Francisco", "website_url": "http://grantpalacesf.com/", "cuisines": ["chinese"], "region": "CA", "long": -122.406088, "phone": "(415) 982-3705", "postal_code": "94108", "categories": ["other", "restaurant"], "has_menu": true, "country": "United States", "lat": 37.795124, "id": "124fcdb1a44d94806792", "street_address": "737 Washington St.", "resource_uri": "/v1_0/venue/124fcdb1a44d94806792/"}, {"name": "R & G Lounge", "locality": "San Francisco", "website_url": "http://www.rnglounge.com/", "cuisines": ["steakhouse / grill", "mediterranean", "chinese"], "region": "CA", "long": -122.404873, "phone": "(415) 982-7877", "postal_code": "94108", "categories": ["other", "restaurant"], "has_menu": true, "country": "United States", "lat": 37.794146, "id": "a903f8a8142e5fa852a6", "street_address": "631 Kearny St.", "resource_uri": "/v1_0/venue/a903f8a8142e5fa852a6/"}, {"name": "Vungtau Restaurant", "locality": "San Francisco", "website_url": "http://sf.yibada.com/yp/9168-%E9%A0%AD%E9%A0%93%E8%B6%8A%E5%8D%97%E7%B2%89-Pho-Vung-Tau-Restaurant.html", "cuisines": ["chinese"], "region": "CA", "long": -122.409172, "phone": "(415) 677-4171", "postal_code": "94133", "categories": ["restaurant"], "has_menu": true, "country": "United States", "lat": 37.798621, "id": "09c97cbbc97e94019e90", "street_address": "708 Vallejo St.", "resource_uri": "/v1_0/venue/09c97cbbc97e94019e90/"}, {"name": "Bund Shanghai Restaurant", "locality": "San Francisco", "website_url": "http://www.bundshanghaisf.com/", "cuisines": ["vegetarian", "chinese"], "region": "CA", "long": -122.405923, "phone": "(415) 982-0618", "postal_code": "94133", "categories": ["other", "restaurant"], "has_menu": true, "country": "United States", "lat": 37.796195, "id": "c13db71c3d85765c3939", "street_address": "640 Jackson St.", "resource_uri": "/v1_0/venue/c13db71c3d85765c3939/"}, {"name": "New Asia Restaurant", "locality": "San Francisco", "website_url": "http://www.sfnewasia.com/", "cuisines": ["chinese"], "region": "CA", "long": -122.407976, "phone": "(415) 391-6666", "postal_code": "94133", "categories": ["other", "restaurant"], "has_menu": true, "country": "United States", "lat": 37.796826, "id": "b07ab7263a2d66292ab4", "street_address": "772 Pacific Ave.", "resource_uri": "/v1_0/venue/b07ab7263a2d66292ab4/"}, {"name": "Brandy Ho's Hunan Food", "locality": "San Francisco", "website_url": "http://www.brandyhos.com", "cuisines": ["steakhouse / grill", "chinese"], "region": "CA", "long": -122.406126, "phone": "(415) 788-7527", "postal_code": "94133", "categories": ["other", "restaurant"], "has_menu": true, "country": "United States", "lat": 37.797236, "id": "c394062eb57d0500e553", "street_address": "217 Columbus Ave.", "resource_uri": "/v1_0/venue/c394062eb57d0500e553/"}, {"name": "El Raigon", "locality": "San Francisco", "website_url": "http://elraigon.com", "cuisines": ["chinese", "bar / pub / brewery"], "region": "CA", "long": -122.407965, "phone": "(415) 291-0927", "postal_code": "94133", "categories": ["other", "restaurant"], "has_menu": true, "country": "United States", "lat": 37.800632, "id": "f9a86143f76a66921587", "street_address": "510 Union St.", "resource_uri": "/v1_0/venue/f9a86143f76a66921587/"}, {"name": "Green Garden Restaurant", "locality": "San Francisco", "website_url": "http://www.greengardenrestaurantsf.com/", "cuisines": ["chinese"], "region": "CA", "long": -122.40468, "phone": "(415) 392-1826", "postal_code": "94133", "categories": ["other", "restaurant"], "has_menu": true, "country": "United States", "lat": 37.798117, "id": "7a1459731455d08fbd26", "street_address": "434 Broadway", "resource_uri": "/v1_0/venue/7a1459731455d08fbd26/"}, {"name": "Dick Lee BBQ & Dim Sum", "locality": "San Francisco", "website_url": "http://www.dickleepastry.page.tl", "cuisines": ["chinese"], "region": "CA", "long": -122.406996488571, "phone": "(415) 397-0788", "postal_code": "94133", "categories": ["other", "restaurant"], "has_menu": true, "country": "United States", "lat": 37.7959835529327, "id": "f202d5a09b5a57d2b7be", "street_address": "716 Jackson St.", "resource_uri": "/v1_0/venue/f202d5a09b5a57d2b7be/"}, {"name": "Z&Y Restaurant", "locality": "San Francisco", "website_url": "http://www.zandyrestaurant.com/en/index.html", "cuisines": ["chinese"], "region": "CA", "long": -122.406022, "phone": "(415) 205-3719", "postal_code": "94133", "categories": ["other", "restaurant"], "has_menu": true, "country": "United States", "lat": 37.796036, "id": "e8ee996188af2b2918ab", "street_address": "655 Jackson St.", "resource_uri": "/v1_0/venue/e8ee996188af2b2918ab/"}, {"name": "Hunan Home's Restaurant", "locality": "San Francisco", "website_url": "http://hunanhome.ypguides.net/", "cuisines": ["chinese"], "region": "CA", "long": -122.405635, "phone": "(415) 982-2844", "postal_code": "94133", "categories": ["other", "restaurant"], "has_menu": true, "country": "United States", "lat": 37.796245, "id": "77c99bb592973c5fad67", "street_address": "622 Jackson St.", "resource_uri": "/v1_0/venue/77c99bb592973c5fad67/"}, {"name": "Izakaya Ju-Ku", "locality": "San Francisco", "website_url": "http://ju-ku19.com/", "cuisines": ["tapas", "sushi", "japanese", "chinese"], "region": "CA", "long": -122.478557, "phone": "(415) 387-5858", "postal_code": "94121", "categories": ["other", "restaurant"], "has_menu": true, "country": "United States", "lat": 37.782196, "id": "d135e55770710896eae0", "street_address": "1801 Clement St.", "resource_uri": "/v1_0/venue/d135e55770710896eae0/"}, {"name": "Kams", "locality": "San Francisco", "website_url": "http://kamsrestaurant.com/", "cuisines": ["chinese", "fast food"], "region": "CA", "long": -122.497775, "phone": "(415) 752-6355", "postal_code": "94121", "categories": ["other", "restaurant"], "has_menu": true, "country": "United States", "lat": 37.775805, "id": "ff3fecb08c778415b2be", "street_address": "3624 Balboa St.", "resource_uri": "/v1_0/venue/ff3fecb08c778415b2be/"}, {"name": "Ton Kiang Restaurant", "locality": "San Francisco", "website_url": "http://www.tonkiang.net/", "cuisines": ["chinese"], "region": "CA", "long": -122.48197, "phone": "(415) 387-8273", "postal_code": "94121", "categories": ["other", "restaurant"], "has_menu": true, "country": "United States", "lat": 37.780056, "id": "caa7c50afa281634fadb", "street_address": "5821 Geary Blvd.", "resource_uri": "/v1_0/venue/caa7c50afa281634fadb/"}, {"name": "Golden Gate Dim Sum Inc", "locality": "San Francisco", "website_url": "http://www.goldengatedimsumsf.com/", "cuisines": ["chinese"], "region": "CA", "long": -122.479018, "phone": "(415) 666-3883", "postal_code": "94121", "categories": ["other", "restaurant"], "has_menu": true, "country": "United States", "lat": 37.782174, "id": "6a3a1188c26be9090140", "street_address": "1829 Clement St.", "resource_uri": "/v1_0/venue/6a3a1188c26be9090140/"}, {"name": "Tsing Tao Resturant", "locality": "San Francisco", "website_url": "http://sftsingtao.com", "cuisines": ["steakhouse / grill", "bbq", "chinese"], "region": "CA", "long": -122.492709159851, "phone": "(415) 387-2344", "postal_code": "94121", "categories": ["other", "restaurant"], "has_menu": true, "country": "United States", "lat": 37.7816372065855, "id": "779b15e8ec9d47f0210c", "street_address": "3107 Clement St.", "resource_uri": "/v1_0/venue/779b15e8ec9d47f0210c/"}, {"name": "House of Banquet", "locality": "San Francisco", "website_url": "http://www.houseofbanquetsf.com/", "cuisines": ["chinese", "fast food"], "region": "CA", "long": -122.469405, "phone": "(415) 221-9888", "postal_code": "94118", "categories": ["other", "restaurant"], "has_menu": true, "country": "United States", "lat": 37.782623, "id": "242524f4d28e18f8c420", "street_address": "939 Clement St.", "resource_uri": "/v1_0/venue/242524f4d28e18f8c420/"}, {"name": "Creations Dessert House", "locality": "San Francisco", "website_url": "http://www.creationsdessert.com/", "cuisines": ["bakery", "dessert / ice cream", "chinese"], "region": "CA", "long": -122.475479, "phone": "(415) 668-8812", "postal_code": "94118", "categories": ["restaurant"], "has_menu": true, "country": "United States", "lat": 37.780352, "id": "2feb385a70f4bc717424", "street_address": "5217 Geary Blvd.", "resource_uri": "/v1_0/venue/2feb385a70f4bc717424/"}, {"name": "Spices II", "locality": "San Francisco", "website_url": "http://spicesrestaurantonline.com/services__menus", "cuisines": ["chinese", "bar / pub / brewery"], "region": "CA", "long": -122.464551, "phone": "(415) 752-8885", "postal_code": "94118", "categories": ["other", "restaurant"], "has_menu": true, "country": "United States", "lat": 37.783169, "id": "145198d666fd26508f07", "street_address": "291 6th Ave.", "resource_uri": "/v1_0/venue/145198d666fd26508f07/"}, {"name": "Burma Superstar", "locality": "San Francisco", "website_url": "http://www.burmasuperstar.com", "cuisines": ["chinese"], "region": "CA", "long": -122.462544276456, "phone": "(415) 387-2147", "postal_code": "94118", "categories": ["other", "restaurant"], "has_menu": true, "country": "United States", "lat": 37.7830303932144, "id": "e12ad8c612b7557effff", "street_address": "309 Clement St.", "resource_uri": "/v1_0/venue/e12ad8c612b7557effff/"}, {"name": "Mandalay", "locality": "San Francisco", "website_url": "http://mandalaysf.com", "cuisines": ["mediterranean", "chinese"], "region": "CA", "long": -122.464301967993, "phone": "(415) 386-3895", "postal_code": "94118", "categories": ["other", "restaurant"], "has_menu": true, "country": "United States", "lat": 37.7851089578919, "id": "44f1a23c22301f79f465", "street_address": "4348 California St.", "resource_uri": "/v1_0/venue/44f1a23c22301f79f465/"}, {"name": "Spices", "locality": "San Francisco", "website_url": "http://spicesrestaurantonline.com/services__menus", "cuisines": ["chinese"], "region": "CA", "long": -122.46651, "phone": "(415) 752-8884", "postal_code": "94118", "categories": ["other", "restaurant"], "has_menu": true, "country": "United States", "lat": 37.783284, "id": "c437f4ac9ce12e45fac4", "street_address": "294 8th Ave.", "resource_uri": "/v1_0/venue/c437f4ac9ce12e45fac4/"}, {"name": "Dong Bei Mama", "locality": "San Francisco", "website_url": "http://www.pandacountrykitchen.com/", "cuisines": ["chinese", "fast food"], "region": "CA", "long": -122.470337, "phone": "(415) 221-4278", "postal_code": "94118", "categories": ["restaurant"], "has_menu": true, "country": "United States", "lat": 37.780581, "id": "bd1aeae29e5fe40531bd", "street_address": "4737 Geary Blvd.", "resource_uri": "/v1_0/venue/bd1aeae29e5fe40531bd/"}, {"name": "Tong Palace", "locality": "San Francisco", "website_url": "http://www.tongpalace.com/", "cuisines": ["dim sum", "seafood", "chinese"], "region": "CA", "long": -122.469264, "phone": "(415) 668-3988", "postal_code": "94118", "categories": ["restaurant"], "has_menu": true, "country": "United States", "lat": 37.782615, "id": "2c76de53f429d1a6c965", "street_address": "933 Clement St.", "resource_uri": "/v1_0/venue/2c76de53f429d1a6c965/"}, {"name": "Lee Hou Restaurant", "locality": "San Francisco", "website_url": "http://leehou.net/", "cuisines": ["dim sum", "chinese"], "region": "CA", "long": -122.462931275368, "phone": "(415) 668-8070", "postal_code": "94118", "categories": ["restaurant"], "has_menu": true, "country": "United States", "lat": 37.783025, "id": "3b05a7b12605ec163df3", "street_address": "332 Clement St.", "resource_uri": "/v1_0/venue/3b05a7b12605ec163df3/"}, {"name": "Melisa's Chinese Cuisine", "locality": "San Francisco", "website_url": "http://melisaschinesecuisine.com", "cuisines": ["chinese"], "region": "CA", "long": -122.463799195606, "phone": "(415) 387-1680", "postal_code": "94118", "categories": ["other", "restaurant"], "has_menu": true, "country": "United States", "lat": 37.7773343722629, "id": "a72a73c55bfcb1c91629", "street_address": "450 Balboa St.", "resource_uri": "/v1_0/venue/a72a73c55bfcb1c91629/"}, {"name": "Mango Medley", "locality": "San Francisco", "website_url": "http://www.mangomedley.com", "cuisines": ["thai", "sushi", "japanese", "chinese"], "region": "CA", "long": -122.504067, "phone": "(415) 681-3228", "postal_code": "94122", "categories": ["other", "restaurant"], "has_menu": true, "country": "United States", "lat": 37.760433, "id": "67d513db4fbbd7aa07c6", "street_address": "3911 Judah St.", "resource_uri": "/v1_0/venue/67d513db4fbbd7aa07c6/"}, {"name": "Asian American Food Co", "locality": "San Francisco", "website_url": "http://www.kingofchinesedumpling.com/", "cuisines": ["chinese"], "region": "CA", "long": -122.479147, "phone": "(415) 665-6617", "postal_code": "94122", "categories": ["other", "restaurant"], "has_menu": true, "country": "United States", "lat": 37.754252, "id": "d99cb7a1cf74428b296f", "street_address": "1426 Noriega St.", "resource_uri": "/v1_0/venue/d99cb7a1cf74428b296f/"}, {"name": "San Tung Chinese Restaurant", "locality": "San Francisco", "website_url": "http://www.santungrestaurant.com/", "cuisines": ["chinese"], "region": "CA", "long": -122.469015, "phone": "(415) 242-0828", "postal_code": "94122", "categories": ["other", "restaurant"], "has_menu": true, "country": "United States", "lat": 37.763801, "id": "409d02515130f787bc0f", "street_address": "1031 Irving St.", "resource_uri": "/v1_0/venue/409d02515130f787bc0f/"}, {"name": "South Sea Seafood Village", "locality": "San Francisco", "website_url": "http://southseaseafoodvillage.com/", "cuisines": ["seafood", "chinese"], "region": "CA", "long": -122.473122, "phone": "(415) 665-8210", "postal_code": "94122", "categories": ["other", "restaurant"], "has_menu": true, "country": "United States", "lat": 37.763781, "id": "5ac5b99e759aa3dcd96e", "street_address": "1420 Irving St.", "resource_uri": "/v1_0/venue/5ac5b99e759aa3dcd96e/"}, {"name": "Enjoy Vegetarian Restaurant", "locality": "San Francisco", "website_url": "http://www.enjoyveggie.com/", "cuisines": ["vegetarian", "chinese"], "region": "CA", "long": -122.469174, "phone": "(415) 682-0826", "postal_code": "94122", "categories": ["other", "restaurant"], "has_menu": true, "country": "United States", "lat": 37.760295, "id": "6e5ebbc0d7e67b1f4435", "street_address": "754 Kirkham St.", "resource_uri": "/v1_0/venue/6e5ebbc0d7e67b1f4435/"}, {"name": "Dim Sum Bar", "locality": "San Francisco", "website_url": "http://www.dimsumbarsf.com/", "cuisines": ["chinese", "bar / pub / brewery"], "region": "CA", "long": -122.414855, "phone": "(415) 839-7366", "postal_code": "94109", "categories": ["other", "restaurant"], "has_menu": true, "country": "United States", "lat": 37.785573, "id": "2c186634ec244e2d9e5f", "street_address": "620 Ofarrell St.", "resource_uri": "/v1_0/venue/2c186634ec244e2d9e5f/"}, {"name": "Ken's Kitchen", "locality": "San Francisco", "website_url": "http://www.kenskitchen.net", "cuisines": ["chinese"], "region": "CA", "long": -122.419237588744, "phone": "(415) 351-2188", "postal_code": "94109", "categories": ["other", "restaurant"], "has_menu": true, "country": "United States", "lat": 37.7830560159043, "id": "95b918ccc423496a13ba", "street_address": "700 Polk St.", "resource_uri": "/v1_0/venue/95b918ccc423496a13ba/"}, {"name": "U-Lee", "locality": "San Francisco", "website_url": "http://u-leesf.com", "cuisines": ["chinese"], "region": "CA", "long": -122.4180315, "phone": "(415) 771-9774", "postal_code": "94109", "categories": ["other", "restaurant"], "has_menu": true, "country": "United States", "lat": 37.794612, "id": "ab1168d3b964bbf251aa", "street_address": "1468 Hyde St.", "resource_uri": "/v1_0/venue/ab1168d3b964bbf251aa/"}, {"name": "Bamboo Restaurant", "locality": "San Francisco", "website_url": "http://www.bamboorestaurantpolksf.com", "cuisines": ["chinese"], "region": "CA", "long": -122.42064, "phone": "(415) 775-3679", "postal_code": "94109", "categories": ["other", "restaurant"], "has_menu": true, "country": "United States", "lat": 37.790204, "id": "786ce768346abcaaaca0", "street_address": "1441 Polk St.", "resource_uri": "/v1_0/venue/786ce768346abcaaaca0/"}, {"name": "Ho's Bar & Restaurant", "locality": "San Francisco", "website_url": "http://www.hosbarandrestaurant.com", "cuisines": ["chinese"], "region": "CA", "long": -122.423702, "phone": "(415) 776-4666", "postal_code": "94109", "categories": ["other", "restaurant"], "has_menu": true, "country": "United States", "lat": 37.797624, "id": "9e3e3607ec6af17b2762", "street_address": "2360 Van Ness Ave.", "resource_uri": "/v1_0/venue/9e3e3607ec6af17b2762/"}, {"name": "Tai Chi Restaurant", "locality": "San Francisco", "website_url": "http://www.taichi-sf.com", "cuisines": ["seafood", "vegetarian", "chinese"], "region": "CA", "long": -122.421707, "phone": "(415) 441-6758", "postal_code": "94109", "categories": ["other", "restaurant"], "has_menu": true, "country": "United States", "lat": 37.79554572, "id": "5414976f51b2f998ac14", "street_address": "2031 Polk St.", "resource_uri": "/v1_0/venue/5414976f51b2f998ac14/"}, {"name": "Lin Jia", "locality": "Oakland", "website_url": "http://www.linjiakitchen.com/", "cuisines": ["chinese"], "region": "CA", "long": -122.242552, "phone": "(510) 835-8322", "postal_code": "94610", "categories": ["restaurant"], "has_menu": true, "country": "United States", "lat": 37.811495, "id": "05c4111e8fc2af51ca29", "street_address": "3437 Lakeshore Ave.", "resource_uri": "/v1_0/venue/05c4111e8fc2af51ca29/"}, {"name": "Yang Chow Restaurant", "locality": "Oakland", "website_url": "http://www.yangchowrestaurant.com/", "cuisines": ["chinese"], "region": "CA", "long": -122.247822, "phone": "(510) 444-1771", "postal_code": "94610", "categories": ["other", "restaurant"], "has_menu": true, "country": "United States", "lat": 37.812007, "id": "b52a1b8078a152f7ff73", "street_address": "3211 Grand Ave.", "resource_uri": "/v1_0/venue/b52a1b8078a152f7ff73/"}, {"name": "Phnom Penh House", "locality": "Oakland", "website_url": "http://phnompenhhouse.com/", "cuisines": ["thai", "cambodian", "chinese"], "region": "CA", "long": -122.269284, "phone": "(510) 893-3825", "postal_code": "94607", "categories": ["restaurant"], "has_menu": true, "country": "United States", "lat": 37.798333, "id": "fbc08dd530cd583406a3", "street_address": "251 8th St.", "resource_uri": "/v1_0/venue/fbc08dd530cd583406a3/"}, {"name": "Le Cheval", "locality": "Oakland", "website_url": "http://www.lecheval.com/", "cuisines": ["asian", "chinese", "vietnamese"], "region": "CA", "long": -122.2754109, "phone": "(510) 763-8495", "postal_code": "94607", "categories": ["other", "restaurant"], "has_menu": true, "country": "United States", "lat": 37.8028645, "id": "2f8789710bff0982d35f", "street_address": "Le Cheval", "resource_uri": "/v1_0/venue/2f8789710bff0982d35f/"}, {"name": "Restaurant Peony", "locality": "Oakland", "website_url": "http://restaurantpeony.com/", "cuisines": ["seafood", "chinese"], "region": "CA", "long": -122.271212, "phone": "(510) 286-8866", "postal_code": "94607", "categories": ["other", "restaurant"], "has_menu": true, "country": "United States", "lat": 37.80067, "id": "b2e35567c92f9d0a580a", "street_address": "388 9th St. #288", "resource_uri": "/v1_0/venue/b2e35567c92f9d0a580a/"}, {"name": "Golden Peacock Restaurant", "locality": "Oakland", "website_url": "http://goldenpeacockrestaurant.com/", "cuisines": ["chinese"], "region": "CA", "long": -122.271236, "phone": "(510) 763-0338", "postal_code": "94607", "categories": ["other", "restaurant"], "has_menu": true, "country": "United States", "lat": 37.799686, "id": "03704c603f6a5f522bf6", "street_address": "825 Webster St.", "resource_uri": "/v1_0/venue/03704c603f6a5f522bf6/"}, {"name": "Hong Kong Fast Food", "locality": "Oakland", "website_url": "http://hongkongfastfood.com/", "cuisines": ["chinese", "fast food"], "region": "CA", "long": -122.281776, "phone": "(510) 832-3477", "postal_code": "94607", "categories": ["other", "restaurant"], "has_menu": true, "country": "United States", "lat": 37.803352, "id": "12d03e6c422f5cece5e2", "street_address": "900 Market St.", "resource_uri": "/v1_0/venue/12d03e6c422f5cece5e2/"}, {"name": "Tao Yin Restaurant", "locality": "Daly City", "website_url": "http://www.geeyin.com/", "cuisines": ["sushi", "japanese", "chinese"], "region": "CA", "long": -122.461679, "phone": "(650) 756-5610", "postal_code": "94014", "categories": ["other", "restaurant"], "has_menu": true, "country": "United States", "lat": 37.705934, "id": "7e8184a18b9a5ca35996", "street_address": "6288 Mission St.", "resource_uri": "/v1_0/venue/7e8184a18b9a5ca35996/"}, {"name": "Ng's Kitchen", "locality": "Daly City", "website_url": "http://ngskitchen.com/", "cuisines": ["american", "chinese"], "region": "CA", "long": -122.417318, "phone": "(415) 239-8844", "postal_code": "94014", "categories": ["other", "restaurant"], "has_menu": true, "country": "United States", "lat": 37.7077, "id": "f301dd4ee228d609b497", "street_address": "2511 Geneva Ave.", "resource_uri": "/v1_0/venue/f301dd4ee228d609b497/"}, {"name": "Little Yangon", "locality": "Daly City", "website_url": "http://littleyangon.wordpress.com/menu", "cuisines": ["thai", "indian", "chinese"], "region": "CA", "long": -122.461869820295, "phone": "(650) 994-0111", "postal_code": "94014", "categories": ["other", "restaurant"], "has_menu": true, "country": "United States", "lat": 37.7056587931201, "id": "76320a5356d60362dbb9", "street_address": "6318 Mission St.", "resource_uri": "/v1_0/venue/76320a5356d60362dbb9/"}, {"name": "Ono Hawaiian BBQ", "locality": "Colma", "website_url": "http://www.onobbq.com/", "cuisines": ["sushi", "japanese", "chinese"], "region": "CA", "long": -122.464482, "phone": "(650) 755-8288", "postal_code": "94014", "categories": ["other", "restaurant"], "has_menu": true, "country": "United States", "lat": 37.671964, "id": "b8922c20132839a903ad", "street_address": "970 Serramonte Blvd.", "resource_uri": "/v1_0/venue/b8922c20132839a903ad/"}, {"name": "Oceanic Restaurant", "locality": "San Mateo", "website_url": "http://www.sanmateooceanic.com/", "cuisines": ["asian", "chinese"], "region": "CA", "long": -122.305231, "phone": "(650) 570-4234", "postal_code": "94403", "categories": ["other", "restaurant"], "has_menu": true, "country": "United States", "lat": 37.54428, "id": "cf7cfad114a5283dfc9c", "street_address": "2507 South El Camino Real", "resource_uri": "/v1_0/venue/cf7cfad114a5283dfc9c/"}, {"name": "Hot Wok Cafe", "locality": "San Mateo", "website_url": "http://www.hotwokcafesanmateo.com/", "cuisines": ["chinese"], "region": "CA", "long": -122.284902, "phone": "(650) 573-1350", "postal_code": "94403", "categories": ["other", "restaurant"], "has_menu": true, "country": "United States", "lat": 37.544887, "id": "1c8b3b3ae7e4a3a41120", "street_address": "2960 South Norfolk St.", "resource_uri": "/v1_0/venue/1c8b3b3ae7e4a3a41120/"}, {"name": "The Noodle Shop", "locality": "San Mateo", "website_url": "http://www.thenoodleshop.com", "cuisines": ["chinese"], "region": "CA", "long": -122.308383, "phone": "(650) 345-1277", "postal_code": "94403", "categories": ["restaurant"], "has_menu": true, "country": "United States", "lat": 37.543595, "id": "bdc445eb9b6a0ad19ae3", "street_address": "164 West 25th Ave.", "resource_uri": "/v1_0/venue/bdc445eb9b6a0ad19ae3/"}, {"name": "Uncle Chen Restaurant", "locality": "San Mateo", "website_url": "http://unclechenrestaurant.com/", "cuisines": ["chinese"], "region": "CA", "long": -122.290509, "phone": "(650) 572-7989", "postal_code": "94403", "categories": ["other", "restaurant"], "has_menu": true, "country": "United States", "lat": 37.53006, "id": "d9d8b2e048900986e07a", "street_address": "40 42nd Ave.", "resource_uri": "/v1_0/venue/d9d8b2e048900986e07a/"}, {"name": "sweet mango restaurant Burmese,Chinese and Thai", "locality": "San Jose", "website_url": "http://www.sweetmangosweet.com/", "cuisines": ["chinese", "fast food"], "region": "CA", "long": -121.899712, "phone": "(408) 293-2268", "postal_code": "95125", "categories": ["other", "restaurant"], "has_menu": true, "country": "United States", "lat": 37.308987, "id": "dd59b0fbeee9ba56255e", "street_address": "1040 Willow St.", "resource_uri": "/v1_0/venue/dd59b0fbeee9ba56255e/"}, {"name": "Taiwan Restaurant Willow Glen", "locality": "San Jose", "website_url": "http://taiwanrestaurantsj.com", "cuisines": ["seafood", "vegetarian", "chinese"], "region": "CA", "long": -121.8982804136, "phone": "(408) 289-8800", "postal_code": "95125", "categories": ["other", "restaurant"], "has_menu": true, "country": "United States", "lat": 37.304870607048, "id": "af3dacb50cda3a1775a6", "street_address": "1306 Lincoln Ave.", "resource_uri": "/v1_0/venue/af3dacb50cda3a1775a6/"}, {"name": "Edna Ray Chinese Restaurant", "locality": "San Jose", "website_url": "http://www.ednaray.com", "cuisines": ["american", "chinese", "fast food"], "region": "CA", "long": -121.9002143819, "phone": "(408) 280-7738", "postal_code": "95125", "categories": ["other", "restaurant"], "has_menu": true, "country": "United States", "lat": 37.3070096797784, "id": "1a419059733d37bbb3dd", "street_address": "1181 Lincoln Ave.", "resource_uri": "/v1_0/venue/1a419059733d37bbb3dd/"}, {"name": "Pearl River Chinese Restaurant", "locality": "San Jose", "website_url": "http://www.pearlriverchinese.com", "cuisines": ["chinese"], "region": "CA", "long": -121.887554526329, "phone": "(408) 265-7066", "postal_code": "95125", "categories": ["other", "restaurant"], "has_menu": true, "country": "United States", "lat": 37.28878, "id": "d5ac30d6c6ac88b61c06", "street_address": "2281 Lincoln Ave.", "resource_uri": "/v1_0/venue/d5ac30d6c6ac88b61c06/"}, {"name": "Flourishing Garden Restaurant", "locality": "San Jose", "website_url": "http://www.flourishinggardenrestaurant.com/", "cuisines": ["american", "chinese"], "region": "CA", "long": -121.866357, "phone": "(408) 288-8868", "postal_code": "95112", "categories": ["other", "restaurant"], "has_menu": true, "country": "United States", "lat": 37.308934, "id": "4a76c37eb7dcb36c57a9", "street_address": "1650 Monterey Rd.", "resource_uri": "/v1_0/venue/4a76c37eb7dcb36c57a9/"}, {"name": "Bay 101", "locality": "San Jose", "website_url": "http://www.bay101.com/", "cuisines": ["chinese"], "region": "CA", "long": -121.913036, "phone": "(408) 451-8888", "postal_code": "95112", "categories": ["other", "restaurant"], "has_menu": true, "country": "United States", "lat": 37.372221, "id": "d5eb4c6cced2f2211022", "street_address": "1801 Bering Drive", "resource_uri": "/v1_0/venue/d5eb4c6cced2f2211022/"}, {"name": "Wings Chinese Restaurant", "locality": "San Jose", "website_url": "http://www.wingsofsanjose.com", "cuisines": ["chinese"], "region": "CA", "long": -121.895967, "phone": "(408) 294-3303", "postal_code": "95112", "categories": ["other", "restaurant"], "has_menu": true, "country": "United States", "lat": 37.348327, "id": "3bdf837818f9aae84483", "street_address": "131 Jackson St.", "resource_uri": "/v1_0/venue/3bdf837818f9aae84483/"}, {"name": "Hunan Taste", "locality": "San Jose", "website_url": "http://hunantaste.net", "cuisines": ["chinese"], "region": "CA", "long": -121.90129535, "phone": "(408) 295-1186", "postal_code": "95112", "categories": ["other", "restaurant"], "has_menu": true, "country": "United States", "lat": 37.35665, "id": "5d683acaa953a8da04a5", "street_address": "998 N. 4th St.", "resource_uri": "/v1_0/venue/5d683acaa953a8da04a5/"}, {"name": "Markos At Bay 101", "locality": "San Jose", "website_url": "http://www.bay101.com/", "cuisines": ["chinese"], "region": "CA", "long": -121.913782, "phone": "(408) 437-5554", "postal_code": "95112", "categories": ["other", "restaurant"], "has_menu": true, "country": "United States", "lat": 37.374192, "id": "c1f0591d88312b19800b", "street_address": "1801 Bering Drive", "resource_uri": "/v1_0/venue/c1f0591d88312b19800b/"}, {"name": "Wing's Chinese Restaurant", "locality": "San Jose", "website_url": "http://www.wingsofsanjose.com", "cuisines": ["chinese"], "region": "CA", "long": -121.89585718, "phone": "294-3303", "postal_code": "95112", "categories": ["other", "restaurant"], "has_menu": true, "country": "United States", "lat": 37.348417, "id": "5edba998d60b8b841b8a", "street_address": "131 Jackson St.", "resource_uri": "/v1_0/venue/5edba998d60b8b841b8a/"}, {"name": "San Jose Noodle Bar", "locality": "San Jose", "website_url": "http://www.sjnoodlebar.com/", "cuisines": ["chinese", "vietnamese"], "region": "CA", "long": -121.890162, "phone": "(408) 292-1539", "postal_code": "95112", "categories": ["other", "restaurant"], "has_menu": true, "country": "United States", "lat": 37.358384, "id": "c252b7f7cbefe0762068", "street_address": "856 North 13th St.", "resource_uri": "/v1_0/venue/c252b7f7cbefe0762068/"}, {"name": "Ichiban Sushi", "locality": "Berkeley", "website_url": "http://www.ichibanberkeley.com/", "cuisines": ["sushi", "japanese", "chinese"], "region": "CA", "long": -122.267617, "phone": "(510) 848-2200", "postal_code": "94704", "categories": ["other", "restaurant"], "has_menu": true, "country": "United States", "lat": 37.871778, "id": "5550f15c91881677dbdc", "street_address": "2017 Shattuck Ave.", "resource_uri": "/v1_0/venue/5550f15c91881677dbdc/"}, {"name": "Great China Restaurant", "locality": "Berkeley", "website_url": "http://greatchinaberkeley.com/", "cuisines": ["chinese"], "region": "CA", "long": -122.266899, "phone": "(510) 843-7996", "postal_code": "94704", "categories": ["other", "restaurant"], "has_menu": true, "country": "United States", "lat": 37.868711, "id": "5383e97d807be919cdd2", "street_address": "2115 Kittredge St.", "resource_uri": "/v1_0/venue/5383e97d807be919cdd2/"}, {"name": "Dak Win Restaurant", "locality": "San Francisco", "website_url": "http://www.dwchinesefood.com/", "cuisines": ["steakhouse / grill", "chinese"], "region": "CA", "long": -122.41823, "phone": "(415) 285-4455", "postal_code": "94110", "categories": ["other", "restaurant"], "has_menu": true, "country": "United States", "lat": 37.751532, "id": "40b4a7f02e9f10a20d6c", "street_address": "2845 Mission St.", "resource_uri": "/v1_0/venue/40b4a7f02e9f10a20d6c/"}, {"name": "Jasmine Tea House", "locality": "San Francisco", "website_url": "http://www.jasmineteahouse.com/", "cuisines": ["coffee / tea", "chinese"], "region": "CA", "long": -122.420292, "phone": "(415) 826-6288", "postal_code": "94110", "categories": ["other", "restaurant"], "has_menu": true, "country": "United States", "lat": 37.744707, "id": "a35b8f2958f3f54b3343", "street_address": "3253 Mission St.", "resource_uri": "/v1_0/venue/a35b8f2958f3f54b3343/"}, {"name": "Shiso Chinese & Japanese Cuisine", "locality": "San Francisco", "website_url": "http://www.shisorestaurantsf.com/", "cuisines": ["japanese", "chinese"], "region": "CA", "long": -122.422661, "phone": "(415) 642-1987", "postal_code": "94110", "categories": ["other", "restaurant"], "has_menu": true, "country": "United States", "lat": 37.741535, "id": "1f191157b9f458b94d1d", "street_address": "3452 Mission St.", "resource_uri": "/v1_0/venue/1f191157b9f458b94d1d/"}, {"name": "Hunan Chef", "locality": "San Francisco", "website_url": "http://www.hunanchefsf.com", "cuisines": ["steakhouse / grill", "chinese"], "region": "CA", "long": -122.416285, "phone": "(415) 648-3636", "postal_code": "94110", "categories": ["other", "restaurant"], "has_menu": true, "country": "United States", "lat": 37.739061, "id": "694c4e57cb6126f449f9", "street_address": "519 Cortland Ave.", "resource_uri": "/v1_0/venue/694c4e57cb6126f449f9/"}, {"name": "Wok & Go", "locality": "San Francisco", "website_url": "http://www.wokandgosf.com/", "cuisines": ["chinese"], "region": "CA", "long": -122.406534, "phone": "(415) 642-4313", "postal_code": "94110", "categories": ["other", "restaurant"], "has_menu": true, "country": "United States", "lat": 37.753045, "id": "3723b87870ce3846f4b0", "street_address": "2700 24th St.", "resource_uri": "/v1_0/venue/3723b87870ce3846f4b0/"}, {"name": "Nulite Kitchen", "locality": "San Francisco", "website_url": "http://www.nulitekitchen.com", "cuisines": ["seafood", "vegetarian", "chinese"], "region": "CA", "long": -122.420888, "phone": "(415) 648-7724", "postal_code": "94110", "categories": ["other", "restaurant"], "has_menu": true, "country": "United States", "lat": 37.743805, "id": "46f25e61621ff4a37090", "street_address": "3319 Mission St.", "resource_uri": "/v1_0/venue/46f25e61621ff4a37090/"}, {"name": "Lung Shan Restaurant", "locality": "San Francisco", "website_url": "http://www.missionchinesefood.com/", "cuisines": ["american", "chinese"], "region": "CA", "long": -122.419392, "phone": "(415) 863-2800", "postal_code": "94110", "categories": ["restaurant"], "has_menu": true, "country": "United States", "lat": 37.761274, "id": "7ff162aa66d7165a73d4", "street_address": "2234 Mission St.", "resource_uri": "/v1_0/venue/7ff162aa66d7165a73d4/"}, {"name": "Alice's Restaurant", "locality": "San Francisco", "website_url": "http://www.alicesrestaurantsf.com/", "cuisines": ["fusion", "asian", "chinese"], "region": "CA", "long": -122.428774, "phone": "(415) 282-8999", "postal_code": "94131", "categories": ["other", "restaurant"], "has_menu": true, "country": "United States", "lat": 37.743695, "id": "d05ffe3e6aeb8107022e", "street_address": "1599 Sanchez St.", "resource_uri": "/v1_0/venue/d05ffe3e6aeb8107022e/"}, {"name": "Eric's Restaurant", "locality": "San Francisco", "website_url": "http://erics.ypguides.net", "cuisines": ["vegetarian", "american", "seafood", "chinese"], "region": "CA", "long": -122.427069, "phone": "(415) 282-0919", "postal_code": "94131", "categories": ["other", "restaurant"], "has_menu": true, "country": "United States", "lat": 37.746917, "id": "83a3c7fc3e65d02f3743", "street_address": "1500 Church St.", "resource_uri": "/v1_0/venue/83a3c7fc3e65d02f3743/"}, {"name": "Pho Bac Hoa Viet", "locality": "Sacramento", "website_url": "http://hoavietonline.com", "cuisines": ["chinese"], "region": "CA", "long": -121.517914, "phone": "(916) 393-0138", "postal_code": "95831", "categories": ["other", "restaurant"], "has_menu": true, "country": "United States", "lat": 38.48088, "id": "b991473784ba313678f4", "street_address": "7600 Greenhaven Dr.", "resource_uri": "/v1_0/venue/b991473784ba313678f4/"}, {"name": "China Cafe", "locality": "Sacramento", "website_url": "http://www.chinacafesacramento.com/", "cuisines": ["seafood", "vegetarian", "chinese"], "region": "CA", "long": -121.457403, "phone": "(916) 454-1925", "postal_code": "95816", "categories": ["other", "restaurant"], "has_menu": true, "country": "United States", "lat": 38.570808, "id": "51d81cfed3cf1d7ca32c", "street_address": "3653 J St.", "resource_uri": "/v1_0/venue/51d81cfed3cf1d7ca32c/"}, {"name": "Ma Jong's Asian Diner", "locality": "Sacramento", "website_url": "http://www.theparkdowntown.com/page.php?url=majongs", "cuisines": ["american", "chinese"], "region": "CA", "long": -121.487908, "phone": "(916) 442-7555", "postal_code": "95814", "categories": ["other", "restaurant"], "has_menu": true, "country": "United States", "lat": 38.576542, "id": "0e98b77c93c0c5a5d08b", "street_address": "1431 L St.", "resource_uri": "/v1_0/venue/0e98b77c93c0c5a5d08b/"}, {"name": "Good Friends Restaurant", "locality": "Sacramento", "website_url": "http://goodfriendssacramento.com/", "cuisines": ["chinese"], "region": "CA", "long": -121.516791, "phone": "(916) 568-5100", "postal_code": "95833", "categories": ["other", "restaurant"], "has_menu": true, "country": "United States", "lat": 38.613087, "id": "2ec85646fb25c5bb1668", "street_address": "2600 Gateway Oaks Drive", "resource_uri": "/v1_0/venue/2ec85646fb25c5bb1668/"}, {"name": "Lucky Express", "locality": "Sacramento", "website_url": "http://www.luckyexpress916.com/", "cuisines": ["chinese"], "region": "CA", "long": -121.42905, "phone": "(916) 920-9888", "postal_code": "95838", "categories": ["other", "restaurant"], "has_menu": true, "country": "United States", "lat": 38.637547, "id": "ac20d7e0c30eba3773d8", "street_address": "3828 Willow St.", "resource_uri": "/v1_0/venue/ac20d7e0c30eba3773d8/"}, {"name": "Muntean's Soup", "locality": "Sacramento", "website_url": "http://munteansoups.com/", "cuisines": ["indian", "chinese"], "region": "CA", "long": -121.489836, "phone": "(916) 498-9340", "postal_code": "95814", "categories": ["restaurant"], "has_menu": true, "country": "United States", "lat": 38.579448, "id": "4d67d324ace870352173", "street_address": "1225 J St.", "resource_uri": "/v1_0/venue/4d67d324ace870352173/"}, {"name": "Eastern Empire", "locality": "Sacramento", "website_url": "http://www.easternempirerestaurant.com/", "cuisines": ["chinese"], "region": "CA", "long": -121.414052, "phone": "(916) 646-1698", "postal_code": "95825", "categories": ["other", "restaurant"], "has_menu": true, "country": "United States", "lat": 38.573499, "id": "936a04494bb175acf768", "street_address": "460 Howe Ave.", "resource_uri": "/v1_0/venue/936a04494bb175acf768/"}, {"name": "Bao Bao Express", "locality": "Sacramento", "website_url": "http://boaboachinese.com/", "cuisines": ["chinese"], "region": "CA", "long": -121.41326, "phone": "(916) 388-9788", "postal_code": "95820", "categories": ["other", "restaurant"], "has_menu": true, "country": "United States", "lat": 38.524842, "id": "2ade2d3f702d7929c674", "street_address": "7724 Fruitridge Rd.", "resource_uri": "/v1_0/venue/2ade2d3f702d7929c674/"}, {"name": "Panda House", "locality": "Sacramento", "website_url": "http://www.pandahousesac.com/", "cuisines": ["chinese"], "region": "CA", "long": -121.486595, "phone": "(916) 452-3838", "postal_code": "95818", "categories": ["other", "restaurant"], "has_menu": true, "country": "United States", "lat": 38.559975, "id": "95d39520481af49cf261", "street_address": "2022 Broadway", "resource_uri": "/v1_0/venue/95d39520481af49cf261/"}, {"name": "New Canton", "locality": "Sacramento", "website_url": "http://newcantonsacramento.com", "cuisines": ["seafood", "chinese"], "region": "CA", "long": -121.479393498922, "phone": "(916) 739-8888", "postal_code": "95818", "categories": ["other", "restaurant"], "has_menu": true, "country": "United States", "lat": 38.558586, "id": "f4f4c8def4abe6afe707", "street_address": "2523 Broadway", "resource_uri": "/v1_0/venue/f4f4c8def4abe6afe707/"}, {"name": "The Mandarin Restaurant", "locality": "Sacramento", "website_url": "http://www.themandarinrestaurant.com/", "cuisines": ["american", "chinese"], "region": "CA", "long": -121.363252, "phone": "(916) 488-4794", "postal_code": "95864", "categories": ["other", "restaurant"], "has_menu": true, "country": "United States", "lat": 38.596346, "id": "a45227fc05103f47652d", "street_address": "4321 Arden Way", "resource_uri": "/v1_0/venue/a45227fc05103f47652d/"}, {"name": "Eggroll Stix", "locality": "Sacramento", "website_url": "http://www.eggrollstix.com", "cuisines": ["chinese"], "region": "CA", "long": -121.402817666531, "phone": "(916) 688-8183", "postal_code": "95828", "categories": ["other", "restaurant"], "has_menu": true, "country": "United States", "lat": 38.4552249568936, "id": "540661b86d887156e7df", "street_address": "8250 Calvine Rd., #a", "resource_uri": "/v1_0/venue/540661b86d887156e7df/"}, {"name": "Korea House", "locality": "Sacramento", "website_url": "http://www.koreahouserestaurant.com/", "cuisines": ["korean", "japanese", "chinese"], "region": "CA", "long": -121.334558, "phone": "(916) 362-5013", "postal_code": "95827", "categories": ["restaurant"], "has_menu": true, "country": "United States", "lat": 38.573555, "id": "3b2d39caa189210a58c3", "street_address": "9729 Folsom Blvd.", "resource_uri": "/v1_0/venue/3b2d39caa189210a58c3/"}, {"name": "Chinois City Cafe", "locality": "Sacramento", "website_url": "http://www.chinoiscitycafe.com/", "cuisines": ["fusion", "asian", "chinese"], "region": "CA", "long": -121.381355, "phone": "(916) 485-8691", "postal_code": "95864", "categories": ["other", "restaurant"], "has_menu": true, "country": "United States", "lat": 38.574869, "id": "ee5baacdb1c71f47b88d", "street_address": "3535 Fair Oaks Blvd.", "resource_uri": "/v1_0/venue/ee5baacdb1c71f47b88d/"}, {"name": "Shanghai Garden", "locality": "Sacramento", "website_url": "http://www.shanghaigardenca.com", "cuisines": ["american", "chinese"], "region": "CA", "long": -121.464718599196, "phone": "(916) 446-6358", "postal_code": "95816", "categories": ["other", "restaurant"], "has_menu": true, "country": "United States", "lat": 38.5747821823526, "id": "89594d1aee82d225637a", "street_address": "800 Alhambra Blvd.", "resource_uri": "/v1_0/venue/89594d1aee82d225637a/"}, {"name": "Indo Cafe", "locality": "Sacramento", "website_url": "http://www.indo-cafe.com/", "cuisines": ["chinese"], "region": "CA", "long": -121.50615, "phone": "(916) 446-4008", "postal_code": "95814", "categories": ["restaurant"], "has_menu": true, "country": "United States", "lat": 38.582192, "id": "44fac6d3c3309c5ce584", "street_address": "1100 Front St.", "resource_uri": "/v1_0/venue/44fac6d3c3309c5ce584/"}, {"name": "Chef Bo", "locality": "Sacramento", "website_url": "http://www.chefbosacramento.com/", "cuisines": ["chinese"], "region": "CA", "long": -121.410281, "phone": "(916) 568-6088", "postal_code": "95825", "categories": ["other", "restaurant"], "has_menu": true, "country": "United States", "lat": 38.573659, "id": "cf196349973ba0e01d11", "street_address": "2310 Fair Oaks Blvd.", "resource_uri": "/v1_0/venue/cf196349973ba0e01d11/"}, {"name": "Louie's Restaurant & Catering", "locality": "Sacramento", "website_url": "http://www.louiescatering.com/", "cuisines": ["chinese"], "region": "CA", "long": -121.453512, "phone": "(916) 739-8646", "postal_code": "95820", "categories": ["other", "restaurant"], "has_menu": true, "country": "United States", "lat": 38.546913, "id": "cf02f30efd07a475e24f", "street_address": "4605 Broadway", "resource_uri": "/v1_0/venue/cf02f30efd07a475e24f/"}, {"name": "Casino Royale", "locality": "Sacramento", "website_url": "http://www.playcasinoroyale.com/", "cuisines": ["american", "chinese"], "region": "CA", "long": -121.418679, "phone": "(916) 929-7529", "postal_code": "95821", "categories": ["other", "restaurant"], "has_menu": true, "country": "United States", "lat": 38.622755, "id": "2ee1548137f1a44d1f1a", "street_address": "2052 Auburn Blvd.", "resource_uri": "/v1_0/venue/2ee1548137f1a44d1f1a/"}, {"name": "Umeko Buffet", "locality": "Sacramento", "website_url": "http://www.umekobuffet.com/", "cuisines": ["seafood", "sushi", "japanese", "chinese"], "region": "CA", "long": -121.396069, "phone": "(916) 381-6333", "postal_code": "95826", "categories": ["other", "restaurant"], "has_menu": true, "country": "United States", "lat": 38.547484, "id": "b0e8b6e85ec1e889472d", "street_address": "8353 Folsom Blvd.", "resource_uri": "/v1_0/venue/b0e8b6e85ec1e889472d/"}, {"name": "Solar Cookers International", "locality": "Sacramento", "website_url": "http://solarcooking.org/", "cuisines": ["chinese"], "region": "CA", "long": -121.482853, "phone": "(916) 455-4499", "postal_code": "95811", "categories": ["other", "restaurant"], "has_menu": true, "country": "United States", "lat": 38.566188, "id": "caf2f98f89e740f5354e", "street_address": "1919 21st St. # 101", "resource_uri": "/v1_0/venue/caf2f98f89e740f5354e/"}, {"name": "Panda Wok", "locality": "Sacramento", "website_url": "http://chinesewokfresh.com", "cuisines": ["chinese"], "region": "CA", "long": -121.452009323786, "phone": "(916) 391-3338", "postal_code": "95823", "categories": ["other", "restaurant"], "has_menu": true, "country": "United States", "lat": 38.4954137236135, "id": "4da1236319b24c183ab6", "street_address": "4540 Florin Rd., #a", "resource_uri": "/v1_0/venue/4da1236319b24c183ab6/"}, {"name": "Panda House", "locality": "Sacramento", "website_url": "http://www.pandahousesac.com", "cuisines": ["chinese"], "region": "CA", "long": -121.486595, "phone": "(916) 452-3838", "postal_code": "95818", "categories": ["other", "restaurant"], "has_menu": true, "country": "United States", "lat": 38.559975, "id": "6371719ca793050e7e43", "street_address": "2022 Broadway", "resource_uri": "/v1_0/venue/6371719ca793050e7e43/"}]