[{"meta": {"limit": 25, "cache-expiry": 3600}, "objects": [{"name": "Enjoy Vegetarian Restaurant", "locality": "San Francisco", "website_url": "http://www.enjoyveggie.com/", "cuisines": ["vegetarian", "chinese"], "region": "CA", "long": -122.405254, "phone": "(415) 956-7868", "postal_code": "94108", "categories": ["other", "restaurant"], "has_menu": true, "country": "United States", "lat": 37.795841, "id": "0d6420ef9825fd2e00ff", "street_address": "839 Kearny St.", "resource_uri": "/v1_0/venue/0d6420ef9825fd2e00ff/"}, {"name": "Eastern Sea", "locality": "San Francisco", "website_url": "http://easternbakery.com", "cuisines": ["chinese"], "region": "CA", "long": -122.406114, "phone": "(415) 989-5182", "postal_code": "94108", "categories": ["restaurant"], "has_menu": true, "country": "United States", "lat": 37.793768, "id": "8a3d7ab187fcd777744d", "street_address": "720 Grant Ave.", "resource_uri": "/v1_0/venue/8a3d7ab187fcd777744d/"}, {"name": "Henry's Hunan Restaurant", "locality": "San Francisco", "website_url": "http://www.henryshunanrestaurant.com/", "cuisines": ["asian", "chinese"], "region": "CA", "long": -122.404146, "phone": "(415) 788-2234", "postal_code": "94108", "categories": ["other", "restaurant"], "has_menu": true, "country": "United States", "lat": 37.793699, "id": "55ae26fcae5d9461db29", "street_address": "674 Sacramento St.", "resource_uri": "/v1_0/venue/55ae26fcae5d9461db29/"}, {"name": "The Far East Caf\u00e9", "locality": "San Francisco", "website_url": "http://fareastcafesf.com", "cuisines": ["dim sum", "seafood", "chinese"], "region": "CA", "long": -122.404918, "phone": "(415) 982-3245", "postal_code": "94108", "categories": ["other", "restaurant"], "has_menu": true, "country": "United States", "lat": 37.793451, "id": "16f61964ffc0e0d3d0a2", "street_address": "631 Grant Ave.", "resource_uri": "/v1_0/venue/16f61964ffc0e0d3d0a2/"}, {"name": "Tonga Room & Hurricane Bar - Fairmont San Francisco", "locality": "San Francisco", "website_url": "http://www.tongaroom.com", "cuisines": ["sushi", "chinese"], "region": "CA", "long": -122.410093, "phone": "(415) 772-5278", "postal_code": "94108", "categories": ["other", "restaurant"], "has_menu": true, "country": "United States", "lat": 37.792427, "id": "1da3345bb77bd14b87d8", "street_address": "950 Mason St.", "resource_uri": "/v1_0/venue/1da3345bb77bd14b87d8/"}, {"name": "Washington Bakery & Restaurant", "locality": "San Francisco", "website_url": "http://www.washingtonbakerysf.com", "cuisines": ["bakery", "chinese"], "region": "CA", "long": -122.406132817268, "phone": "(415) 397-3232", "postal_code": "94108", "categories": ["other", "restaurant"], "has_menu": true, "country": "United States", "lat": 37.7952286763584, "id": "d09492062ce1ac6202ba", "street_address": "733 Washington St.", "resource_uri": "/v1_0/venue/d09492062ce1ac6202ba/"}, {"name": "City Chopsticks", "locality": "San Francisco", "website_url": "http://www.citychopstickssf.com", "cuisines": ["chinese"], "region": "CA", "long": -122.411820797083, "phone": "(415) 563-1085", "postal_code": "94108", "categories": ["other", "restaurant"], "has_menu": true, "country": "United States", "lat": 37.7899099158298, "id": "c3dcbc27f208377b6ca3", "street_address": "883 Bush St.", "resource_uri": "/v1_0/venue/c3dcbc27f208377b6ca3/"}, {"name": "Chinatown Restaurant", "locality": "San Francisco", "website_url": "http://www.chinatownrestaurantsf.com/", "cuisines": ["chinese"], "region": "CA", "long": -122.405986, "phone": "(415) 392-7958", "postal_code": "94108", "categories": ["other", "restaurant"], "has_menu": true, "country": "United States", "lat": 37.795273, "id": "c3c6e822137449bc2001", "street_address": "744 Washington St.", "resource_uri": "/v1_0/venue/c3c6e822137449bc2001/"}, {"name": "The Pot Sticker Restaurant", "locality": "San Francisco", "website_url": "http://www.thepotsticker.com/", "cuisines": ["seafood", "vegetarian", "chinese"], "region": "CA", "long": -122.406896, "phone": "(415) 397-9985", "postal_code": "94108", "categories": ["other", "restaurant"], "has_menu": true, "country": "United States", "lat": 37.794884, "id": "8b66120521ccbe829cb0", "street_address": "150 Waverly Pl.", "resource_uri": "/v1_0/venue/8b66120521ccbe829cb0/"}, {"name": "San Sun Restaurant", "locality": "San Francisco", "website_url": "http://www.sansunrestaurant.com/", "cuisines": ["chinese"], "region": "CA", "long": -122.407193, "phone": "(415) 296-8228", "postal_code": "94108", "categories": ["other", "restaurant"], "has_menu": true, "country": "United States", "lat": 37.79512, "id": "bda841ac0d505ceed6ac", "street_address": "848 Washington St.", "resource_uri": "/v1_0/venue/bda841ac0d505ceed6ac/"}, {"name": "Imperial Palace", "locality": "San Francisco", "website_url": "http://imperialpalacesf.com", "cuisines": ["dim sum", "chinese", "bar / pub / brewery"], "region": "CA", "long": -122.40675982219, "phone": "(415) 956-9888", "postal_code": "94108", "categories": ["other", "restaurant"], "has_menu": true, "country": "United States", "lat": 37.7952073638653, "id": "5565bd49f17d19dff724", "street_address": "818 Washington St.", "resource_uri": "/v1_0/venue/5565bd49f17d19dff724/"}, {"name": "Four Seas Restaurant", "locality": "San Francisco", "website_url": "http://www.fourseasr.com", "cuisines": ["chinese"], "region": "CA", "long": -122.406, "phone": "(415) 989-8188", "postal_code": "94108", "categories": ["other", "restaurant"], "has_menu": true, "country": "United States", "lat": 37.7936, "id": "ed82ce4a5df02542b385", "street_address": "731 Grant Ave.", "resource_uri": "/v1_0/venue/ed82ce4a5df02542b385/"}, {"name": "Penang Garden Restaurant", "locality": "San Francisco", "website_url": "http://penanggardensf.com/", "cuisines": ["thai", "malaysian", "asian", "chinese"], "region": "CA", "long": -122.405534, "phone": "(415) 296-7878", "postal_code": "94108", "categories": ["other", "restaurant"], "has_menu": true, "country": "United States", "lat": 37.795352, "id": "7534e62e89111159cb24", "street_address": "728 Washington St.", "resource_uri": "/v1_0/venue/7534e62e89111159cb24/"}, {"name": "Empress of China", "locality": "San Francisco", "website_url": "http://empressofchinasf.com/", "cuisines": ["chinese", "bar / pub / brewery"], "region": "CA", "long": -122.406323, "phone": "(415) 434-1345", "postal_code": "94108", "categories": ["other", "restaurant"], "has_menu": true, "country": "United States", "lat": 37.79476, "id": "fea8758f92dba7ccaea3", "street_address": "838 Grant Ave.", "resource_uri": "/v1_0/venue/fea8758f92dba7ccaea3/"}, {"name": "Grant Palace Restaurant", "locality": "San Francisco", "website_url": "http://grantpalacesf.com/", "cuisines": ["chinese"], "region": "CA", "long": -122.406088, "phone": "(415) 982-3705", "postal_code": "94108", "categories": ["other", "restaurant"], "has_menu": true, "country": "United States", "lat": 37.795124, "id": "124fcdb1a44d94806792", "street_address": "737 Washington St.", "resource_uri": "/v1_0/venue/124fcdb1a44d94806792/"}, {"name": "R & G Lounge", "locality": "San Francisco", "website_url": "http://www.rnglounge.com/", "cuisines": ["steakhouse / grill", "mediterranean", "chinese"], "region": "CA", "long": -122.404873, "phone": "(415) 982-7877", "postal_code": "94108", "categories": ["other", "restaurant"], "has_menu": true, "country": "United States", "lat": 37.794146, "id": "a903f8a8142e5fa852a6", "street_address": "631 Kearny St.", "resource_uri": "/v1_0/venue/a903f8a8142e5fa852a6/"}]}, {"meta": {"limit": 25, "cache-expiry": 3600}, "objects": [{"name": "Vungtau Restaurant", "locality": "San Francisco", "website_url": "http://sf.yibada.com/yp/9168-%E9%A0%AD%E9%A0%93%E8%B6%8A%E5%8D%97%E7%B2%89-Pho-Vung-Tau-Restaurant.html", "cuisines": ["chinese"], "region": "CA", "long": -122.409172, "phone": "(415) 677-4171", "postal_code": "94133", "categories": ["restaurant"], "has_menu": true, "country": "United States", "lat": 37.798621, "id": "09c97cbbc97e94019e90", "street_address": "708 Vallejo St.", "resource_uri": "/v1_0/venue/09c97cbbc97e94019e90/"}, {"name": "Bund Shanghai Restaurant", "locality": "San Francisco", "website_url": "http://www.bundshanghaisf.com/", "cuisines": ["vegetarian", "chinese"], "region": "CA", "long": -122.405923, "phone": "(415) 982-0618", "postal_code": "94133", "categories": ["other", "restaurant"], "has_menu": true, "country": "United States", "lat": 37.796195, "id": "c13db71c3d85765c3939", "street_address": "640 Jackson St.", "resource_uri": "/v1_0/venue/c13db71c3d85765c3939/"}, {"name": "New Asia Restaurant", "locality": "San Francisco", "website_url": "http://www.sfnewasia.com/", "cuisines": ["chinese"], "region": "CA", "long": -122.407976, "phone": "(415) 391-6666", "postal_code": "94133", "categories": ["other", "restaurant"], "has_menu": true, "country": "United States", "lat": 37.796826, "id": "b07ab7263a2d66292ab4", "street_address": "772 Pacific Ave.", "resource_uri": "/v1_0/venue/b07ab7263a2d66292ab4/"}, {"name": "Brandy Ho's Hunan Food", "locality": "San Francisco", "website_url": "http://www.brandyhos.com", "cuisines": ["steakhouse / grill", "chinese"], "region": "CA", "long": -122.406126, "phone": "(415) 788-7527", "postal_code": "94133", "categories": ["other", "restaurant"], "has_menu": true, "country": "United States", "lat": 37.797236, "id": "c394062eb57d0500e553", "street_address": "217 Columbus Ave.", "resource_uri": "/v1_0/venue/c394062eb57d0500e553/"}, {"name": "El Raigon", "locality": "San Francisco", "website_url": "http://elraigon.com", "cuisines": ["chinese", "bar / pub / brewery"], "region": "CA", "long": -122.407965, "phone": "(415) 291-0927", "postal_code": "94133", "categories": ["other", "restaurant"], "has_menu": true, "country": "United States", "lat": 37.800632, "id": "f9a86143f76a66921587", "street_address": "510 Union St.", "resource_uri": "/v1_0/venue/f9a86143f76a66921587/"}, {"name": "Green Garden Restaurant", "locality": "San Francisco", "website_url": "http://www.greengardenrestaurantsf.com/", "cuisines": ["chinese"], "region": "CA", "long": -122.40468, "phone": "(415) 392-1826", "postal_code": "94133", "categories": ["other", "restaurant"], "has_menu": true, "country": "United States", "lat": 37.798117, "id": "7a1459731455d08fbd26", "street_address": "434 Broadway", "resource_uri": "/v1_0/venue/7a1459731455d08fbd26/"}, {"name": "Dick Lee BBQ & Dim Sum", "locality": "San Francisco", "website_url": "http://www.dickleepastry.page.tl", "cuisines": ["chinese"], "region": "CA", "long": -122.406996488571, "phone": "(415) 397-0788", "postal_code": "94133", "categories": ["other", "restaurant"], "has_menu": true, "country": "United States", "lat": 37.7959835529327, "id": "f202d5a09b5a57d2b7be", "street_address": "716 Jackson St.", "resource_uri": "/v1_0/venue/f202d5a09b5a57d2b7be/"}, {"name": "Z&Y Restaurant", "locality": "San Francisco", "website_url": "http://www.zandyrestaurant.com/en/index.html", "cuisines": ["chinese"], "region": "CA", "long": -122.406022, "phone": "(415) 205-3719", "postal_code": "94133", "categories": ["other", "restaurant"], "has_menu": true, "country": "United States", "lat": 37.796036, "id": "e8ee996188af2b2918ab", "street_address": "655 Jackson St.", "resource_uri": "/v1_0/venue/e8ee996188af2b2918ab/"}, {"name": "Hunan Home's Restaurant", "locality": "San Francisco", "website_url": "http://hunanhome.ypguides.net/", "cuisines": ["chinese"], "region": "CA", "long": -122.405635, "phone": "(415) 982-2844", "postal_code": "94133", "categories": ["other", "restaurant"], "has_menu": true, "country": "United States", "lat": 37.796245, "id": "77c99bb592973c5fad67", "street_address": "622 Jackson St.", "resource_uri": "/v1_0/venue/77c99bb592973c5fad67/"}]}, {"meta": {"limit": 25, "cache-expiry": 3600}, "objects": [{"name": "Izakaya Ju-Ku", "locality": "San Francisco", "website_url": "http://ju-ku19.com/", "cuisines": ["tapas", "sushi", "japanese", "chinese"], "region": "CA", "long": -122.478557, "phone": "(415) 387-5858", "postal_code": "94121", "categories": ["other", "restaurant"], "has_menu": true, "country": "United States", "lat": 37.782196, "id": "d135e55770710896eae0", "street_address": "1801 Clement St.", "resource_uri": "/v1_0/venue/d135e55770710896eae0/"}, {"name": "Kams", "locality": "San Francisco", "website_url": "http://kamsrestaurant.com/", "cuisines": ["chinese", "fast food"], "region": "CA", "long": -122.497775, "phone": "(415) 752-6355", "postal_code": "94121", "categories": ["other", "restaurant"], "has_menu": true, "country": "United States", "lat": 37.775805, "id": "ff3fecb08c778415b2be", "street_address": "3624 Balboa St.", "resource_uri": "/v1_0/venue/ff3fecb08c778415b2be/"}, {"name": "Ton Kiang Restaurant", "locality": "San Francisco", "website_url": "http://www.tonkiang.net/", "cuisines": ["chinese"], "region": "CA", "long": -122.48197, "phone": "(415) 387-8273", "postal_code": "94121", "categories": ["other", "restaurant"], "has_menu": true, "country": "United States", "lat": 37.780056, "id": "caa7c50afa281634fadb", "street_address": "5821 Geary Blvd.", "resource_uri": "/v1_0/venue/caa7c50afa281634fadb/"}, {"name": "Golden Gate Dim Sum Inc", "locality": "San Francisco", "website_url": "http://www.goldengatedimsumsf.com/", "cuisines": ["chinese"], "region": "CA", "long": -122.479018, "phone": "(415) 666-3883", "postal_code": "94121", "categories": ["other", "restaurant"], "has_menu": true, "country": "United States", "lat": 37.782174, "id": "6a3a1188c26be9090140", "street_address": "1829 Clement St.", "resource_uri": "/v1_0/venue/6a3a1188c26be9090140/"}, {"name": "Tsing Tao Resturant", "locality": "San Francisco", "website_url": "http://sftsingtao.com", "cuisines": ["steakhouse / grill", "bbq", "chinese"], "region": "CA", "long": -122.492709159851, "phone": "(415) 387-2344", "postal_code": "94121", "categories": ["other", "restaurant"], "has_menu": true, "country": "United States", "lat": 37.7816372065855, "id": "779b15e8ec9d47f0210c", "street_address": "3107 Clement St.", "resource_uri": "/v1_0/venue/779b15e8ec9d47f0210c/"}]}, {"meta": {"limit": 25, "cache-expiry": 3600}, "objects": [{"name": "House of Banquet", "locality": "San Francisco", "website_url": "http://www.houseofbanquetsf.com/", "cuisines": ["chinese", "fast food"], "region": "CA", "long": -122.469405, "phone": "(415) 221-9888", "postal_code": "94118", "categories": ["other", "restaurant"], "has_menu": true, "country": "United States", "lat": 37.782623, "id": "242524f4d28e18f8c420", "street_address": "939 Clement St.", "resource_uri": "/v1_0/venue/242524f4d28e18f8c420/"}, {"name": "Creations Dessert House", "locality": "San Francisco", "website_url": "http://www.creationsdessert.com/", "cuisines": ["bakery", "dessert / ice cream", "chinese"], "region": "CA", "long": -122.475479, "phone": "(415) 668-8812", "postal_code": "94118", "categories": ["restaurant"], "has_menu": true, "country": "United States", "lat": 37.780352, "id": "2feb385a70f4bc717424", "street_address": "5217 Geary Blvd.", "resource_uri": "/v1_0/venue/2feb385a70f4bc717424/"}, {"name": "Spices II", "locality": "San Francisco", "website_url": "http://spicesrestaurantonline.com/services__menus", "cuisines": ["chinese", "bar / pub / brewery"], "region": "CA", "long": -122.464551, "phone": "(415) 752-8885", "postal_code": "94118", "categories": ["other", "restaurant"], "has_menu": true, "country": "United States", "lat": 37.783169, "id": "145198d666fd26508f07", "street_address": "291 6th Ave.", "resource_uri": "/v1_0/venue/145198d666fd26508f07/"}, {"name": "Burma Superstar", "locality": "San Francisco", "website_url": "http://www.burmasuperstar.com", "cuisines": ["chinese"], "region": "CA", "long": -122.462544276456, "phone": "(415) 387-2147", "postal_code": "94118", "categories": ["other", "restaurant"], "has_menu": true, "country": "United States", "lat": 37.7830303932144, "id": "e12ad8c612b7557effff", "street_address": "309 Clement St.", "resource_uri": "/v1_0/venue/e12ad8c612b7557effff/"}, {"name": "Mandalay", "locality": "San Francisco", "website_url": "http://mandalaysf.com", "cuisines": ["mediterranean", "chinese"], "region": "CA", "long": -122.464301967993, "phone": "(415) 386-3895", "postal_code": "94118", "categories": ["other", "restaurant"], "has_menu": true, "country": "United States", "lat": 37.7851089578919, "id": "44f1a23c22301f79f465", "street_address": "4348 California St.", "resource_uri": "/v1_0/venue/44f1a23c22301f79f465/"}, {"name": "Spices", "locality": "San Francisco", "website_url": "http://spicesrestaurantonline.com/services__menus", "cuisines": ["chinese"], "region": "CA", "long": -122.46651, "phone": "(415) 752-8884", "postal_code": "94118", "categories": ["other", "restaurant"], "has_menu": true, "country": "United States", "lat": 37.783284, "id": "c437f4ac9ce12e45fac4", "street_address": "294 8th Ave.", "resource_uri": "/v1_0/venue/c437f4ac9ce12e45fac4/"}, {"name": "Dong Bei Mama", "locality": "San Francisco", "website_url": "http://www.pandacountrykitchen.com/", "cuisines": ["chinese", "fast food"], "region": "CA", "long": -122.470337, "phone": "(415) 221-4278", "postal_code": "94118", "categories": ["restaurant"], "has_menu": true, "country": "United States", "lat": 37.780581, "id": "bd1aeae29e5fe40531bd", "street_address": "4737 Geary Blvd.", "resource_uri": "/v1_0/venue/bd1aeae29e5fe40531bd/"}, {"name": "Tong Palace", "locality": "San Francisco", "website_url": "http://www.tongpalace.com/", "cuisines": ["dim sum", "seafood", "chinese"], "region": "CA", "long": -122.469264, "phone": "(415) 668-3988", "postal_code": "94118", "categories": ["restaurant"], "has_menu": true, "country": "United States", "lat": 37.782615, "id": "2c76de53f429d1a6c965", "street_address": "933 Clement St.", "resource_uri": "/v1_0/venue/2c76de53f429d1a6c965/"}, {"name": "Lee Hou Restaurant", "locality": "San Francisco", "website_url": "http://leehou.net/", "cuisines": ["dim sum", "chinese"], "region": "CA", "long": -122.462931275368, "phone": "(415) 668-8070", "postal_code": "94118", "categories": ["restaurant"], "has_menu": true, "country": "United States", "lat": 37.783025, "id": "3b05a7b12605ec163df3", "street_address": "332 Clement St.", "resource_uri": "/v1_0/venue/3b05a7b12605ec163df3/"}, {"name": "Melisa's Chinese Cuisine", "locality": "San Francisco", "website_url": "http://melisaschinesecuisine.com", "cuisines": ["chinese"], "region": "CA", "long": -122.463799195606, "phone": "(415) 387-1680", "postal_code": "94118", "categories": ["other", "restaurant"], "has_menu": true, "country": "United States", "lat": 37.7773343722629, "id": "a72a73c55bfcb1c91629", "street_address": "450 Balboa St.", "resource_uri": "/v1_0/venue/a72a73c55bfcb1c91629/"}]}, {"meta": {"limit": 25, "cache-expiry": 3600}, "objects": [{"name": "Mango Medley", "locality": "San Francisco", "website_url": "http://www.mangomedley.com", "cuisines": ["thai", "sushi", "japanese", "chinese"], "region": "CA", "long": -122.504067, "phone": "(415) 681-3228", "postal_code": "94122", "categories": ["other", "restaurant"], "has_menu": true, "country": "United States", "lat": 37.760433, "id": "67d513db4fbbd7aa07c6", "street_address": "3911 Judah St.", "resource_uri": "/v1_0/venue/67d513db4fbbd7aa07c6/"}, {"name": "Asian American Food Co", "locality": "San Francisco", "website_url": "http://www.kingofchinesedumpling.com/", "cuisines": ["chinese"], "region": "CA", "long": -122.479147, "phone": "(415) 665-6617", "postal_code": "94122", "categories": ["other", "restaurant"], "has_menu": true, "country": "United States", "lat": 37.754252, "id": "d99cb7a1cf74428b296f", "street_address": "1426 Noriega St.", "resource_uri": "/v1_0/venue/d99cb7a1cf74428b296f/"}, {"name": "San Tung Chinese Restaurant", "locality": "San Francisco", "website_url": "http://www.santungrestaurant.com/", "cuisines": ["chinese"], "region": "CA", "long": -122.469015, "phone": "(415) 242-0828", "postal_code": "94122", "categories": ["other", "restaurant"], "has_menu": true, "country": "United States", "lat": 37.763801, "id": "409d02515130f787bc0f", "street_address": "1031 Irving St.", "resource_uri": "/v1_0/venue/409d02515130f787bc0f/"}, {"name": "South Sea Seafood Village", "locality": "San Francisco", "website_url": "http://southseaseafoodvillage.com/", "cuisines": ["seafood", "chinese"], "region": "CA", "long": -122.473122, "phone": "(415) 665-8210", "postal_code": "94122", "categories": ["other", "restaurant"], "has_menu": true, "country": "United States", "lat": 37.763781, "id": "5ac5b99e759aa3dcd96e", "street_address": "1420 Irving St.", "resource_uri": "/v1_0/venue/5ac5b99e759aa3dcd96e/"}, {"name": "Enjoy Vegetarian Restaurant", "locality": "San Francisco", "website_url": "http://www.enjoyveggie.com/", "cuisines": ["vegetarian", "chinese"], "region": "CA", "long": -122.469174, "phone": "(415) 682-0826", "postal_code": "94122", "categories": ["other", "restaurant"], "has_menu": true, "country": "United States", "lat": 37.760295, "id": "6e5ebbc0d7e67b1f4435", "street_address": "754 Kirkham St.", "resource_uri": "/v1_0/venue/6e5ebbc0d7e67b1f4435/"}]}, {"meta": {"limit": 25, "cache-expiry": 3600}, "objects": [{"name": "Dim Sum Bar", "locality": "San Francisco", "website_url": "http://www.dimsumbarsf.com/", "cuisines": ["chinese", "bar / pub / brewery"], "region": "CA", "long": -122.414855, "phone": "(415) 839-7366", "postal_code": "94109", "categories": ["other", "restaurant"], "has_menu": true, "country": "United States", "lat": 37.785573, "id": "2c186634ec244e2d9e5f", "street_address": "620 Ofarrell St.", "resource_uri": "/v1_0/venue/2c186634ec244e2d9e5f/"}, {"name": "Ken's Kitchen", "locality": "San Francisco", "website_url": "http://www.kenskitchen.net", "cuisines": ["chinese"], "region": "CA", "long": -122.419237588744, "phone": "(415) 351-2188", "postal_code": "94109", "categories": ["other", "restaurant"], "has_menu": true, "country": "United States", "lat": 37.7830560159043, "id": "95b918ccc423496a13ba", "street_address": "700 Polk St.", "resource_uri": "/v1_0/venue/95b918ccc423496a13ba/"}, {"name": "U-Lee", "locality": "San Francisco", "website_url": "http://u-leesf.com", "cuisines": ["chinese"], "region": "CA", "long": -122.4180315, "phone": "(415) 771-9774", "postal_code": "94109", "categories": ["other", "restaurant"], "has_menu": true, "country": "United States", "lat": 37.794612, "id": "ab1168d3b964bbf251aa", "street_address": "1468 Hyde St.", "resource_uri": "/v1_0/venue/ab1168d3b964bbf251aa/"}, {"name": "Bamboo Restaurant", "locality": "San Francisco", "website_url": "http://www.bamboorestaurantpolksf.com", "cuisines": ["chinese"], "region": "CA", "long": -122.42064, "phone": "(415) 775-3679", "postal_code": "94109", "categories": ["other", "restaurant"], "has_menu": true, "country": "United States", "lat": 37.790204, "id": "786ce768346abcaaaca0", "street_address": "1441 Polk St.", "resource_uri": "/v1_0/venue/786ce768346abcaaaca0/"}, {"name": "Ho's Bar & Restaurant", "locality": "San Francisco", "website_url": "http://www.hosbarandrestaurant.com", "cuisines": ["chinese"], "region": "CA", "long": -122.423702, "phone": "(415) 776-4666", "postal_code": "94109", "categories": ["other", "restaurant"], "has_menu": true, "country": "United States", "lat": 37.797624, "id": "9e3e3607ec6af17b2762", "street_address": "2360 Van Ness Ave.", "resource_uri": "/v1_0/venue/9e3e3607ec6af17b2762/"}, {"name": "Tai Chi Restaurant", "locality": "San Francisco", "website_url": "http://www.taichi-sf.com", "cuisines": ["seafood", "vegetarian", "chinese"], "region": "CA", "long": -122.421707, "phone": "(415) 441-6758", "postal_code": "94109", "categories": ["other", "restaurant"], "has_menu": true, "country": "United States", "lat": 37.79554572, "id": "5414976f51b2f998ac14", "street_address": "2031 Polk St.", "resource_uri": "/v1_0/venue/5414976f51b2f998ac14/"}]}]